Région administrative,Département,Commune,Identifiant Muséofile,Nom officiel du musée,date de création,Adresse,Adresse_2,Code Postal,URL,Latitude,Longitude,REF_Deps,geolocalisation,Date arrêté attribution appellation
Île-de-France,Hauts-de-Seine,Boulogne-Billancourt,M0406,musée des années trente,,26 avenue André Morizet,"26 avenue André Morizet, 92100",92100,www.boulognebillancourt.com/loisirs/culture/les-musees/musee-des-annees-trente,48.836060,2.239201,9201201,"48.836060, 2.239201",2003-02-01
Île-de-France,Hauts-de-Seine,Boulogne-Billancourt,M1170,musée Paul-Belmondo,,14 rue Abreuvoir,"14 rue Abreuvoir, 92100",92100,www.boulognebillancourt.com/loisirs/culture/les-musees/musee-paul-belmondo,48.847462,2.232700,9201204,"48.847462, 2.232700",2007-03-26
Île-de-France,Hauts-de-Seine,Chelles,M0428,"musée des transports urbains, interurbains et ruraux",,1 rue Gabriel de Mortillet,"1 rue Gabriel de Mortillet, 77500",77500,amtuir.org/,48.87682,2.603374,7710802,"48.87682, 2.603374",2003-02-01
Île-de-France,Hauts-de-Seine,Clamart,M1126,fondation Arp,,21 rue des Châtaigniers,"21 rue des Châtaigniers, 92140",92140,www.fondationarp.org/,48.803529,2.244319,9202301,"48.803529, 2.244319",2004-03-09
Île-de-France,Hauts-de-Seine,Rueil-Malmaison,M5016,musée national de Malmaison et Bois-Préau,,Avenue du chateau de Malmaison,"Avenue du chateau de Malmaison, 92500",92500,musees-nationaux-malmaison.fr/chateau-malmaison/,48.873334,2.1689,9206301,"48.873334, 2.1689",2002-01-06
Île-de-France,Hauts-de-Seine,Saint-Cloud,M0416,musée des Avelines,,60 rue Gounod,"60 rue Gounod, 92210",92210,www.musee-saintcloud.fr/,48.842497,2.208286,9206401,"48.842497, 2.208286",2003-02-01
Île-de-France,Paris,Paris,M1202,musée d'art et d'histoire de l'hôpital Sainte-Anne,2016-01-01,1 rue Cabanis,"1 rue Cabanis, 75014",75014,musee-mahhsa.com,48.830264,2.340376,7511403,"48.830264, 2.340376",2016-05-26
Île-de-France,Paris,Paris,M1113,musée de la Vie romantique,1987-01-01,16 rue Chaptal,"16 rue Chaptal, 75009",75009,museevieromantique.paris.fr/fr,48.880899,2.333278,7510905,"48.880899, 2.333278",2004-07-08
Île-de-France,Paris,Paris,M5042,musée des Monuments français,1879-01-01,1 place du Trocadéro,"1 place du Trocadéro, 75016",75016,www.citedelarchitecture.fr/fr/article/le-musee-des-monuments-francais,48.862323,2.281879,7511606,"48.862323, 2.281879",2004-07-09
Île-de-France,Paris,Paris,M1108,musée Galliera,1895-01-01,10 avenue Pierre Ier de Serbie,"10 avenue Pierre Ier de Serbie, 75006",75006,www.palaisgalliera.paris.fr/,48.866136805463356,2.297248499625773,7511617,"48.866136805463356, 2.297248499625773",2004-07-08
Île-de-France,Paris,Paris,M5021,musée des Arts décoratifs,1905-05-29,107 rue de Rivoli,"107 rue de Rivoli, 75001",75001,madparis.fr/francais,48.863218,2.3333,7510102,"48.863218, 2.3333",2002-01-06
Île-de-France,Paris,Paris,M5031,Musée du Louvre,1793-08-10,Place du Carrousel,"Place du Carrousel, 75001",75001,www.louvre.fr/,48.86079459806906,2.3378156596817785,7510106,"48.86079459806906, 2.3378156596817785",2002-01-06
Île-de-France,Paris,Paris,M0364,musée d'art et d'histoire du judaïsme,1998-01-01,71 rue du Temple,"71 rue du Temple, 75003",75003,www.mahj.org/,48.86095,2.355608,7510303,"48.86095, 2.355608",2003-02-01
Île-de-France,Paris,Paris,M5066,musée de la Monnaie de Paris,1833-01-01,11 quai de Conti,"11 quai de Conti, 75006",75006,www.monnaiedeparis.fr/,48.857003,2.338699,7510609,"48.857003, 2.338699",2002-01-06
Île-de-France,Paris,Paris,M5060,musée d'Orsay,1986-01-01,1 rue de Bellechasse,"1 rue de Bellechasse, 75007",75007,www.musee-orsay.fr/,48.859157,2.323672,7510705,"48.859157, 2.323672",2002-01-06
Île-de-France,Seine-et-Marne,Fontainebleau,M0375,musée napoléonien d'art et d'histoire militaires,,88 rue St Honoré,"88 rue St Honoré, 77300",77300,www.fontainebleau.fr/engagee/fontainebleau-avance/un-batiment-renove-et-un-lieu-totalement-repense-251.html,48.406893,2.698781,7718602,"48.406893, 2.698781",2003-02-01
Île-de-France,Seine-et-Marne,Le Mée-sur-Seine,M0377,musée Henri-Chapu,,937 rue Henri Chapu,"937 rue Henri Chapu, 77350",77350,le-mee-sur-seine.fr/le-mee-village/une-terre-dartistes/,48.534859,2.635235,7728501,"48.534859, 2.635235",2003-02-01
Île-de-France,Val d'Oise,Auvers-sur-Oise,M1213,Musée Daubigny,,Manoir des Colombières,"Manoir des Colombières, 95430",95430,museedaubigny.com,49.071480153019486,2.171783250055156,,"49.071480153019486, 2.171783250055156",2020-12-10
Île-de-France,Val d'Oise,Ecouen,M5012,musée national de la Renaissance,,Château d'Ecouen,"Château d'Ecouen, 95440",95440,musee-renaissance.fr/,49.015862,2.378424,9520501,"49.015862, 2.378424",2002-01-06
Île-de-France,Val d'Oise,Louvres,M0436,Archéa,,56 rue de Paris,"56 rue de Paris, 95380",95380,archea.roissypaysdefrance.fr/,49.041117,2.50695,9535101,"49.041117, 2.50695",2003-02-01
Île-de-France,Val-de-Marne,Fresnes,M0426,écomusée de Fresnes,,41 rue Maurice Tenine,"41 rue Maurice Tenine, 94260",94260,www.fresnes94.fr/a-votre-service/culture-sports-et-loisirs/equipements-culturels/ecomusee-du-val-de-bievre/,48.75525,2.326389,9403401,"48.75525, 2.326389",2003-02-01
Île-de-France,Val-de-Marne,Maisons-Alfort,M5064,musée Fragonard de l'École vétérinaire de Maisons-Alfort,,7 avenue du Général de Gaulle,"7 avenue du Général de Gaulle, 94704",94704,www.vet-alfort.fr/domaine-d-alfort/musee-fragonard/infos-pratiques,48.81278282657873,2.4233629652344084,9404601,"48.81278282657873, 2.4233629652344084",2006-08-29
Île-de-France,Val-de-Marne,Nogent-sur-Marne,M0427,musée de Nogent-sur-Marne,,36 boulevard Gallieni,"36 boulevard Gallieni, 94130",94130,museenogentsurmarne.net/,48.84026,2.484292,9405201,"48.84026, 2.484292",2003-02-01
Île-de-France,Val-de-Marne,Vitry-sur-Seine,M0431,musée d'Art contemporain du Val-de-Marne,,Place de la Libération,"Place de la Libération, 94400",94400,www.macval.fr/,48.792821,2.387072,9408101,"48.792821, 2.387072",2003-02-01
Île-de-France,Yvelines,Magny-les-Hameaux,M5045,musée national de Port-Royal des Champs,,Route des Granges,"Route des Granges, 78114",78114,www.port-royal-des-champs.eu/,48.748437,2.01579,7835601,"48.748437, 2.01579",2002-01-06
Île-de-France,Yvelines,Mantes-la-Jolie,M0389,musée de l'Hôtel-Dieu,,1 rue Thiers,"1 rue Thiers, 78200",78200,www.manteslajolie.fr/MUSEE%20DE%20LHOTELDIEU,48.990874,1.719901,7836101,"48.990874, 1.719901",2003-02-01
Île-de-France,Yvelines,Marly-le-Roi-Louveciennes,M0390,musée du domaine royal de Marly,,1 Grille royale - Parc de Marly,"1 Grille royale - Parc de Marly, 78160",78160,www.musee-promenade.fr,48.859572,2.109482,7835001,"48.859572, 2.109482",2003-02-01
Île-de-France,Yvelines,Médan,M1186,maison d'Émile Zola,,26 Rue Pasteur,"26 Rue Pasteur, 78670",78670,www.maisonzola-museedreyfus.com/,48.952745,1.995035,7838401,"48.952745, 1.995035",2009-11-19
Île-de-France,Yvelines,Saint-Germain-en-Laye,M5001,musée d'Archéologie nationale,,Place Charles de Gaulle,"Place Charles de Gaulle, 78100",78100,musee-archeologienationale.fr/,48.897879,2.094936,7855103,"48.897879, 2.094936",2002-01-06
Île-de-France,Yvelines,Versailles,M0400,musée Lambinet,,54 boulevard de la Reine,"54 boulevard de la Reine, 78000",78000,www.versailles.fr/museelambinet/,48.808966,2.130624,7864601,"48.808966, 2.130624",2003-02-01
Île-de-France,Essonne,Etampes,M0405,musée municipal d'Étampes,,Hôtel de ville,"Hôtel de ville, 91150",91150,www.mairie-etampes.fr/le-musee/,48.434307,2.161909,9122301,"48.434307, 2.161909",2003-02-01
Île-de-France,Hauts-de-Seine,Boulogne-Billancourt,M0407,musée départemental Albert-Kahn,,14 rue du Port,"14 rue du Port, 92100",92100,albert-kahn.hauts-de-seine.fr/,48.841354,2.227488,9201203,"48.841354, 2.227488",2003-02-01
Île-de-France,Hauts-de-Seine,Boulogne-Billancourt,M0408,musée-jardin Paul-Landowski,,14 rue Max-Blondat,"14 rue Max-Blondat, 92100",92100,www.boulognebillancourt.com/loisirs/culture/les-musees/musee-paul-landowski,48.844261,2.246847,9201202,"48.844261, 2.246847",2003-02-01
Île-de-France,Hauts-de-Seine,Meudon,M0412,musée d'art et d'histoire de Meudon,,11 rue des Pierres,"11 rue des Pierres, 92190",92190,musee.meudon.fr/,48.806412,2.234894,9204801,"48.806412, 2.234894",2003-02-01
Île-de-France,Hauts-de-Seine,Saint-Cloud,M1219,musée du Grand Siècle,,Caserne Sully,"Caserne Sully, 92210",92210,https://museedugrandsiecle.hauts-de-seine.fr/,48.83901,2.21992,,"48.83901, 2.21992",2022-12-20
Île-de-France,Paris,Paris,M1102,maison de Balzac,1949-01-01,47 rue Raynouard,"47 rue Raynouard, 75016",75016,www.maisondebalzac.paris.fr/,48.855398,2.280805,7511616,"48.855398, 2.280805",2004-07-08
Île-de-France,Paris,Paris,M1109,musée du Général Leclerc de Hauteclocque et de la Libération de Paris - musée Jean-Moulin,1994-01-01,23 allée de la 2ème Division Blindée,"23 allée de la 2ème Division Blindée, 75015",75015,www.museeliberation-leclerc-moulin.paris.fr/,48.840614,2.319773,7511503,"48.840614, 2.319773",2004-07-08
Île-de-France,Paris,Paris,M5071,musée des Plans-reliefs,1942-01-01,129 rue de Grenelle,"129 rue de Grenelle, 75007",75007,www.museedesplansreliefs.culture.fr/,48.858219,2.312885,7510702,"48.858219, 2.312885",2002-01-06
Île-de-France,Paris,Paris,M5084,musée de l'Histoire de l'immigration,2007-01-01,293 avenue Daumesnil,"293 avenue Daumesnil, 75012",75012,www.histoire-immigration.fr/,48.836753,2.390394,7511202,"48.836753, 2.390394",2006-11-17
Île-de-France,Paris,Paris,M1115,musée Zadkine,1982-01-01,100 bis rue d'Assas,"100 bis rue d'Assas, 75006",75006,www.zadkine.paris.fr/,48.842793,2.333457,7510608,"48.842793, 2.333457",2004-07-08
Île-de-France,Paris,Paris,M5026,musée national de la Marine,1827-01-01,17 place du Trocadéro,"17 place du Trocadéro, 75016",75016,www.musee-marine.fr/,48.862049,2.287502,7511618,"48.862049, 2.287502",2002-01-06
Île-de-France,Paris,Paris,M5039,musée national Jean-Jacques-Henner,1924-01-01,43 avenue de Villiers,"43 avenue de Villiers, 75017",75017,www.musee-henner.fr/,48.883045,2.307689,7511701,"48.883045, 2.307689",2002-01-06
Île-de-France,Paris,Paris,M1076,musée de l'Assistance publique - Hôpitaux de Paris,1934-01-01,10 rue des Fossés-Saint-Marcel,"10 rue des Fossés-Saint-Marcel, 75005",75005,www.aphp.fr/musee,48.838805,2.356007,7510517,"48.838805, 2.356007",2002-10-02
Île-de-France,Paris,Paris,M5003,musée de Cluny,1844-03-17,6 place Paul Painlevé,"6 place Paul Painlevé, 75005",75005,www.musee-moyenage.fr/,48.850437,2.344553,7510501,"48.850437, 2.344553",2002-01-06
Île-de-France,Paris,Paris,M7003,Muséum national d'histoire naturelle,1793-06-10,2 rue Buffon,"2 rue Buffon, 75005",75005,www.mnhn.fr/fr/collections/ensembles-collections/vertebres/anatomie-comparee,48.842168,2.359933,7510508,"48.842168, 2.359933",2002-01-06
Île-de-France,Paris,Paris,M5044,musée Rodin,1916-01-01,77 rue de Varenne,"77 rue de Varenne, 75007",75007,www.musee-rodin.fr/,48.855868,2.31598,7510703,"48.855868, 2.31598",2002-01-06
Île-de-France,Seine-et-Marne,Coupvray,M0373,musée Louis-Braille,,13 rue Louis Braille,"13 rue Louis Braille, 77400",77400,museelouisbraille.com/,48.867372,2.712931,7713201,"48.867372, 2.712931",2003-02-01
Île-de-France,Seine-et-Marne,Crécy-la-Chapelle,M0374,musée municipal de Crécy-la-Chapelle,,s'adresser à la mairie,77580,77580,,48.85813263142596,2.908441509296712,7714201,"48.85813263142596, 2.908441509296712",2003-02-01
Île-de-France,Seine-et-Marne,Melun,M0379,musée municipal de Melun,,5 rue du Franc Mûrier,"5 rue du Franc Mûrier, 77000",77000,www.ville-melun.fr/temps-libre/musee-d-art-et-d-histoire-de-la-ville-de-melun/232-presentation-du-musee,48.536398,2.658972,7728802,"48.536398, 2.658972",2003-02-01
Île-de-France,Seine-et-Marne,Saint-Cyr-sur-Morin,M0384,musée départemental de la Seine-et-Marne,,17 avenue de la Ferté-sous-Jouarre,"17 avenue de la Ferté-sous-Jouarre, 77750",77750,www.musee-seine-et-marne.fr/fr,48.90803,3.18169,7740501,"48.90803, 3.18169",2003-02-01
Île-de-France,Seine-Saint-Denis,Le Bourget,M5024,musée de l'Air et de l'Espace,,BP 173,"BP 173, 93352",93352,www.museeairespace.fr/,48.94681950649236,2.4355624358692265,9301301,"48.94681950649236, 2.4355624358692265",2002-01-06
Île-de-France,Seine-Saint-Denis,Saint-Denis,M0422,musée d'art et d'histoire de Saint-Denis,,22 bis rue Gabriel Peri,"22 bis rue Gabriel Peri, 93200",93200,musee-saint-denis.com/,48.932336,2.355796,9306601,"48.932336, 2.355796",2003-02-01
Île-de-France,Yvelines,Jouy-en-Josas,M0388,musée de la toile de Jouy,,54 rue Charles de Gaulle,"54 rue Charles de Gaulle, 78350",78350,www.museedelatoiledejouy.fr/,48.768986,2.153216,7832201,"48.768986, 2.153216",2003-02-01
Île-de-France,Yvelines,Maule,M0391,musée Victor Aubert,,24 Rue Quincampoix,"24 Rue Quincampoix, 78580",78580,museeaubertmaule.free.fr/,48.908246,1.847178,7838001,"48.908246, 1.847178",2003-02-01
Île-de-France,Yvelines,Rambouillet,M0395,Rambolitrain,,4 place Jeanne d'Arc,"4 place Jeanne d'Arc, 78120",78120,www.rambolitrain.com/,48.646025,1.823892,7851702,"48.646025, 1.823892",2003-02-01
Île-de-France,Yvelines,Saint-Germain-en-Laye,M0396,musée départemental Maurice-Denis,,2bis rue Maurice Denis,"2bis rue Maurice Denis, 78100",78100,www.musee-mauricedenis.fr/,48.892495,2.087541,7855101,"48.892495, 2.087541",2003-02-01
Île-de-France,Yvelines,Saint-Rémy-lès-Chevreuse,M0399,Fondation de Coubertin,,Conservation des collections,"Conservation des collections, 78470",78470,/www.coubertin.fr/,48.706544,2.069096,7857501,"48.706544, 2.069096",2003-02-01
Île-de-France,Essonne,Bièvres,M0401,musée français de la photographie,,78 rue de Paris,"78 rue de Paris, 91570",91570,photographie.essonne.fr/,48.762826,2.225102,9106401,"48.762826, 2.225102",2003-02-01
Île-de-France,Essonne,Brunoy,M0403,musée Robert-Dubois-Corneau,,16 rue du Réveillon,"16 rue du Réveillon, 91800",91800,www.brunoy.fr/vos-demarches-services/vie-culturelle-et-animations/musee/,48.700308,2.500293,9111401,"48.700308, 2.500293",2003-02-01
Île-de-France,Hauts-de-Seine,Courbevoie,M0410,musée Roybet-Fould,,Parc de Bécon 178 Boulevard Saint Denis,"Parc de Bécon 178 Boulevard Saint Denis, 92400",92400,www.museeroybetfould.fr/,48.900998,2.271279,9202601,"48.900998, 2.271279",2003-02-01
Île-de-France,Hauts-de-Seine,Rueil-Malmaison,M0415,musée d'Histoire locale de Rueil-Malmaison,,Place du 11 novembre,"Place du 11 novembre, 92500",92500,www.villederueil.fr/fr/musee-dhistoire-locale,48.877678,2.18183,9206303,"48.877678, 2.18183",2003-02-01
Île-de-France,Hauts-de-Seine,Suresnes,M0418,musée d'histoire urbaine et sociale de Suresnes,,1 place de la gare de Suresnes-Longchamp,"1 place de la gare de Suresnes-Longchamp, 92150",92150,webmuseo.com/ws/musee-suresnes/app/report/index.html,48.868303,2.221944,9207301,"48.868303, 2.221944",2003-02-01
Île-de-France,Paris,Paris,M1106,musée Cernuschi,1898-01-01,7 avenue Vélasquez,"7 avenue Vélasquez, 75008",75008,www.cernuschi.paris.fr/,48.879693,2.312194,7510807,"48.879693, 2.312194",2004-07-08
Île-de-France,Paris,Paris,M1107,musée Cognacq-Jay,1929-01-01,8 rue Elzévir,"8 rue Elzévir, 75003",75003,www.museecognacqjay.paris.fr/,48.858257,2.361524,7510306,"48.858257, 2.361524",2004-07-08
Île-de-France,Paris,Paris,M5051,musée de l'Ecole nationale supérieure des beaux-arts,1834-11-17,14 rue Bonaparte,"14 rue Bonaparte, 75006",75006,beauxartsparis.fr/fr/collection/presentation,48.845748,2.33167,7510610,"48.845748, 2.33167",2017-07-10
Île-de-France,Paris,Paris,M0365,Institut du monde arabe,1987-11-30,1 rue Fossés St Bernard,"1 rue Fossés St Bernard, 75005",75005,www.imarabe.org/fr/musee/presentation-du-musee,48.843955,2.352176,7510519,"48.843955, 2.352176",2011-03-21
Île-de-France,Paris,Paris,M9024,musée du service de santé des armées,1916-01-01,1 place Alphonse Laveran,"1 place Alphonse Laveran, 75005",75005,www.ecole-valdegrace.sante.defense.gouv.fr/bibliotheque-musee/musee-du-service-de-sante-des-armees,48.840814,2.341091,7510516,"48.840814, 2.341091",2006-12-13
Île-de-France,Paris,Paris,M1116,musée de La Poste,1946-01-01,34 boulevard de Vaugirard,"34 boulevard de Vaugirard, 75015",75015,www.museedelaposte.fr/,48.84156094062689,2.3177008959224517,7511504,"48.84156094062689, 2.3177008959224517",2002-01-06
Île-de-France,Paris,Paris,M0369,musée de Montmartre,1960-01-01,12 rue Cortot,"12 rue Cortot, 75018",75018,museedemontmartre.fr/,48.887709,2.340577,7511801,"48.887709, 2.340577",2003-02-01
Île-de-France,Paris,Paris,M5030,musée de l'Orangerie,1852-01-01,jardin Tuileries,"jardin Tuileries, 75001",75001,www.musee-orangerie.fr/,48.868053,2.326622,7510103,"48.868053, 2.326622",2002-01-06
Île-de-France,Paris,Paris,M5065,musée des Arts et Métiers,1794-01-01,60 rue Réaumur,"60 rue Réaumur, 75003",75003,www.arts-et-metiers.net/,48.865357,2.357046,7510304,"48.865357, 2.357046",2002-01-06
Île-de-France,Paris,Paris,M5050,musée national d'Art moderne,1947-06-09,Place Georges Pompidou,"Place Georges Pompidou, 75004",75004,www.centrepompidou.fr/,48.86080432275963,2.3522235406355176,7510402,"48.86080432275963, 2.3522235406355176",2002-01-06
Île-de-France,Paris,Paris,M5004,musée national Eugène-Delacroix,1971-01-01,6 rue de Fürstenberg,"6 rue de Fürstenberg, 75006",75006,www.musee-delacroix.fr/fr/,48.854434,2.335679,7510602,"48.854434, 2.335679",2002-01-06
Île-de-France,Paris,Paris,M0366,musée de la franc-maçonnerie,1889-01-01,16 rue Cadet,"16 rue Cadet, 75009",75009,www.museefm.org/,48.874991,2.343088,7510902,"48.874991, 2.343088",2003-02-01
Île-de-France,Seine-et-Marne,Coulommiers,M0372,musée municipal des Capucins,,Parc des capucins,"Parc des capucins, 77120",77120,www.coulommiers.fr/loisirs/patrimoine/le-musee/,48.810834,3.086974,7713101,"48.810834, 3.086974",2003-02-01
Île-de-France,Seine-et-Marne,Lagny-sur-Marne,M0376,musée Gatien-Bonnet,,8 cour Pierre Herbin,"8 cour Pierre Herbin, 77400",77400,www.lagny-sur-marne.fr/loisirs/culture/musee-gatien-bonnet/,48.879644,2.707767,7724301,"48.879644, 2.707767",2003-02-01
Île-de-France,Seine-et-Marne,Nemours,M0381,château de Nemours,,Rue Gautier 1er - Cour du Château,"Rue Gautier 1er - Cour du Château, 77140",77140,www.nemours.fr/chateau-musee/,48.265518,2.696157,7733302,"48.265518, 2.696157",2003-02-01
Île-de-France,Seine-et-Marne,Provins,M0383,musée de Provins et du Provinois,,7 rue du Palais,"7 rue du Palais, 77160",77160,www.provins.net/decouvrir-visiter/samuser-au-musee/le-musee-de-provins-et-du-provinois/,48.561624,3.290374,7737901,"48.561624, 3.290374",2003-02-01
Île-de-France,Seine-et-Marne,Vulaines-sur-Seine,M0386,musée départemental Stéphane-Mallarmé,,4 quai Stéphane-Mallarmé,"4 quai Stéphane-Mallarmé, 77870",77870,www.musee-mallarme.fr/fr,48.430323,2.746605,7753301,"48.430323, 2.746605",2003-02-01
Île-de-France,Seine-Saint-Denis,Montreuil,M0420,musée de l'Histoire vivante,,31 boulevard Théophile Sueur,"31 boulevard Théophile Sueur, 93100",93100,www.museehistoirevivante.fr/,48.866151,2.469481,9304801,"48.866151, 2.469481",2003-02-01
Île-de-France,Seine-Saint-Denis,Saint-Ouen,M0423,musée municipal de Saint-Ouen,,12 rue Albert-Dhalenne,"12 rue Albert-Dhalenne, 93400",93400,www.saint-ouen.fr/services-infos-pratiques/culture-et-patrimoine/histoire-et-patrimoine/287-collections-d-art-et-d-histoire.html,48.915848,2.330639,9307001,"48.915848, 2.330639",2003-02-01
Île-de-France,Val d'Oise,Pontoise,M0439,musée d'Art et d'Histoire Pissarro-Pontoise,,17 rue du Château,"17 rue du Château, 95300",95300,www.ville-pontoise.fr/equipement/musee-camille-pissarro,49.048396,2.099887,9550002,"49.048396, 2.099887",2003-02-01
Île-de-France,Val-de-Marne,Bry-sur-Marne,M0424,musée Adrien-Mentienne,,1 grande rue Charles de Gaulle,"1 grande rue Charles de Gaulle, 94360",94360,museedebry.fr/#/page-musee/fr,48.835224,2.519827,9401501,"48.835224, 2.519827",2003-02-01
Île-de-France,Val-de-Marne,Champigny-sur-Marne,M0425,musée de la Résistance nationale,,88 avenue Marx Dormoy BP 135,"88 avenue Marx Dormoy BP 135, 94501",94501,www.musee-resistance.com/musee-nouveau/presentation/,48.807483493456196,2.525362870676448,9401701,"48.807483493456196, 2.525362870676448",2003-02-01
Île-de-France,Val-de-Marne,Saint-Maur-des-Fossés,M0429,musée de Saint-Maur-des-Fossés,,5 rue Saint-Hilaire - 92 avenue du Bac - Rue de la Poste,"5 rue Saint-Hilaire - 92 avenue du Bac - Rue de la Poste, 94210",94210,www.saint-maur.com/?id=127,48.79310937814309,2.5149018357668425,9406801,"48.79310937814309, 2.5149018357668425",2003-01-11
Île-de-France,Yvelines,Conflans-Sainte-Honorine,M0387,musée de la batellerie et des voies navigables de Conflans-Sainte-Honorine,,Place Gévelot,"Place Gévelot, 78700",78700,www.musee-batellerie-conflans.fr/fr/accueil/,48.992445,2.095621,7817201,"48.992445, 2.095621",2003-02-01
Île-de-France,Yvelines,Poissy,M0393,Musée d'Art et d'Histoire de Poissy,,12 rue Saint Louis,"12 rue Saint Louis, 78300",78300,musees.ville-poissy.fr/fr/histoire-de-la-collection,48.92797,2.044648,7849802,"48.92797, 2.044648",2003-02-01
Île-de-France,Yvelines,Poissy,M0394,musée du jouet,,1 enclos de l'Abbaye,"1 enclos de l'Abbaye, 78300",78300,www.ville-poissy.fr/index.php/sport-culture/equipements-culturels/musee-du-jouet.html,48.928429,2.037892,7849801,"48.928429, 2.037892",2003-02-01
Île-de-France,Essonne,Boussy-Saint-Antoine,M0402,musée Dunoyer de Segonzac,,5 place des Droits de l'Homme,"5 place des Droits de l'Homme, 91800",91800,www.ville-boussy.fr/votre-mairie/la-culture.html,48.688925,2.530019,9109701,"48.688925, 2.530019",2003-02-01
Île-de-France,Essonne,Dourdan,M0404,musée du château de Dourdan,,Place du général de Gaulle,"Place du général de Gaulle, 91410",91410,www.dourdan.fr/a-voir-a-vivre/lechateauetsonmusee/,48.529685,2.011803,9120001,"48.529685, 2.011803",2003-02-01
Île-de-France,Hauts-de-Seine,Colombes,M0409,musée municipal d'Art et d'Histoire de Colombes,,2 rue Gabriel Péri,"2 rue Gabriel Péri, 92700",92700,www.colombes.fr/culture/musee-municipal-d-art-et-d-histoire-983.html,48.923321,2.252039,9202501,"48.923321, 2.252039",2003-02-01
Île-de-France,Hauts-de-Seine,Courbevoie,M1149,musée des travaux publics de Courbevoie,,s'adresser à la mairie,92974,92974,,48.89817715987157,2.2579850008669635,9202602,"48.89817715987157, 2.2579850008669635",2002-01-06
Île-de-France,Hauts-de-Seine,Sceaux,M0417,musée du Domaine départemental de Sceaux,,Domaine Départemental de Sceaux,"Domaine Départemental de Sceaux, 92330",92330,domaine-de-sceaux.hauts-de-seine.fr/,48.774707,2.299024,9207101,"48.774707, 2.299024",2003-02-01
Île-de-France,Paris,Paris,M1103,musée Bourdelle,1949-01-01,16 rue Antoine Bourdelle,"16 rue Antoine Bourdelle, 75015",75015,www.bourdelle.paris.fr/,48.843017,2.31883,7511502,"48.843017, 2.31883",2004-07-08
Île-de-France,Paris,Paris,M1101,musée d'Art moderne de Paris,1935-01-01,11 avenue du Président Wilson,"11 avenue du Président Wilson, 75016",75016,www.mam.paris.fr/fr,48.864603220958784,2.29843234195393,7511615,"48.864603220958784, 2.29843234195393",2004-07-08
Île-de-France,Paris,Paris,M5055,musée du quai Branly - Jacques-Chirac,2006-06-20,37 quai Branly,"37 quai Branly, 75007",75007,www.quaibranly.fr/fr/,48.861511,2.29771,7510709,"48.861511, 2.29771",2004-12-09
Île-de-France,Paris,Paris,M5040,musée d'Ennery,1908-01-01,59 avenue Foch,"59 avenue Foch, 75016",75016,www.guimet.fr/,48.871845,2.281997,7511601,"48.871845, 2.281997",2002-01-06
Île-de-France,Paris,Paris,M5057,musée de la musique,1864-11-17,221 avenue Jean-Jaurès,"221 avenue Jean-Jaurès, 75019",75019,philharmoniedeparis.fr/fr/musee-de-la-musique,48.889306,2.393807,7510802,"48.889306, 2.393807",2002-01-06
Île-de-France,Paris,Paris,M0363,musée de la Chasse et de la Nature,1967-01-01,62 rue des Archives,"62 rue des Archives, 75003",75003,www.chassenature.org/,48.861491,2.358608,7510301,"48.861491, 2.358608",2003-02-01
Île-de-France,Paris,Paris,M5043,musée Picasso,1985-01-01,5 rue Thorigny,"5 rue Thorigny, 75003",75003,www.museepicassoparis.fr/,48.8597,2.362644,7510305,"48.8597, 2.362644",2002-01-06
Île-de-France,Paris,Paris,M5025,musée de l'Armée,1905-01-01,129 Hôtel National des Invalides,"129 Hôtel National des Invalides, 75007",75007,www.musee-armee.fr/accueil.html,48.856937,2.312773,7510701,"48.856937, 2.312773",2002-01-06
Île-de-France,Paris,Paris,M5073,musée Nissim-de-Camondo,1936-12-21,63 rue de Monceau,"63 rue de Monceau, 75008",75008,madparis.fr/francais/musees/musee-nissim-de-camondo/,48.878849,2.312855,7510801,"48.878849, 2.312855",2002-01-06
Île-de-France,Paris,Paris,M5041,musée Gustave-Moreau,1903-01-14,14 rue de la Rochefoucauld,"14 rue de la Rochefoucauld, 75009",75009,musee-moreau.fr/,48.877878,2.334383,7510901,"48.877878, 2.334383",2002-01-06
Île-de-France,Seine-et-Marne,Melun,M9013,musée de la Gendarmerie nationale de Melun,,Avenue du 13e Dragons,"Avenue du 13e Dragons, 77000",77000,www.gendarmerie.interieur.gouv.fr/musee,48.54648,2.651583,7728803,"48.54648, 2.651583",2011-03-21
Île-de-France,Seine-et-Marne,Savigny-le-Temple,M0385,écomusée - Ferme du Coulevrain,,Place George-Henri Rivière,"Place George-Henri Rivière, 77176",77176,,48.599142,2.570872,7744501,"48.599142, 2.570872",2003-02-01
Île-de-France,Val-d'Oise,Gonesse,M1217,Musée D'histoire Et De Société,,66 rue de Paris,"66 rue de Paris, 95500",95500,www.ville-gonesse.fr/content/qui-sommes-nous-1,48.98651569144933,2.449718782248399,,"2.449718782248399, 48.98651569144933",2023-02-16
Île-de-France,Yvelines,Montigny-le-Bretonneux,M0398,musée de la ville de Saint-Quentin-en-Yvelines,,Quai François Truffaut,"Quai François Truffaut, 78180",78180,www.saint-quentin-en-yvelines.fr/fr/sortir-et-decouvrir/envie-de-culture/le-musee-de-la-ville-et-le-patrimoine/le-musee,48.782594,2.042664,7820801,"48.782594, 2.042664",2003-02-01
Île-de-France,Hauts-de-Seine,Issy-les-Moulineaux,M0411,musée français de la carte à jouer,,16 rue Auguste Gervais,"16 rue Auguste Gervais, 92130",92130,www.museecarteajouer.com/,48.822771,2.273453,9204001,"48.822771, 2.273453",2003-02-01
Île-de-France,Hauts-de-Seine,Neuilly-sur-Seine,M0413,musée des automates,,12 rue du centre,"12 rue du centre, 92200",92200,www.neuillysurseine.fr/details-d-un-acteur?id=240,48.879608,2.252754,9205101,"48.879608, 2.252754",2003-02-01
Île-de-France,Hauts-de-Seine,Sèvres,M5019,musée national de Céramique,,Place de la Manufacture,"Place de la Manufacture, 92310",92310,,48.817037,2.205733,9207201,"48.817037, 2.205733",2002-01-06
Île-de-France,Paris,Paris,M1114,maison de Victor Hugo,1903-01-01,6 place des Vosges,"6 place des Vosges, 75004",75004,www.maisonsvictorhugo.paris.fr/,48.854808,2.366232,7510405,"48.854808, 2.366232",2004-07-08
Île-de-France,Paris,Paris,M1104,musée Carnavalet,1880-12-01,23 rue de Sévigné,"23 rue de Sévigné, 75003",75003,www.carnavalet.paris.fr/,48.85699,2.362856,7510307,"48.85699, 2.362856",2004-07-08
Île-de-France,Paris,Paris,M1204,musée Yves Saint Laurent Paris,2017-01-01,5 avenue Marceau,"5 avenue Marceau, 75016",75016,museeyslparis.com/,48.873694,2.280339,7511619,"48.873694, 2.280339",2017-07-10
Île-de-France,Paris,Paris,M1111,musée des Beaux-Arts de la ville de Paris,1902-01-01,Avenue Winston-Churchill,"Avenue Winston-Churchill, 75008",75008,www.petitpalais.paris.fr/,48.86609,2.313763,7510808,"48.86609, 2.313763",2004-07-08
Île-de-France,Paris,Paris,M5005,musée national des Arts asiatiques - Guimet,1889-01-01,6 place d'Iéna,"6 place d'Iéna, 75016",75016,www.museeguimet.fr,48.865089,2.293693,7511603,"48.865089, 2.293693",2002-01-06
Île-de-France,Paris,Paris,M5059,musée de la Légion d'honneur,1925-01-01,2 rue de la Légion d'honneur,"2 rue de la Légion d'honneur, 75007",75007,www.legiondhonneur.fr/fr,48.860294,2.324768,7510706,"48.860294, 2.324768",2002-01-06
Île-de-France,Seine-et-Marne,Barbizon,M0370,musée des Peintres de Barbizon,,92 Grande Rue,"92 Grande Rue, 77630",77630,www.musee-peintres-barbizon.fr/fr,48.446181,2.602464,7702201,"48.446181, 2.602464",2003-02-01
Île-de-France,Seine-et-Marne,Chelles,M0371,musée Alfred-Bonno,,Place de la République,"Place de la République, 77500",77500,www.chelles.fr/chelles-a-vivre/culture/musee-alfred-bonno/,48.87766,2.591845,7710801,"48.87766, 2.591845",2003-02-01
Île-de-France,Seine-et-Marne,Fontainebleau,M5013,musée national du Château de Fontainebleau,,Château de Fontainebleau - Place du général de Gaulle,"Château de Fontainebleau - Place du général de Gaulle, 77300",77300,www.chateaudefontainebleau.fr/,48.402815,2.696858,7718601,"48.402815, 2.696858",2002-01-06
Île-de-France,Seine-et-Marne,Meaux,M0378,musée Bossuet,,5 place Charles-de-Gaulle,"5 place Charles-de-Gaulle, 77100",77100,www.musee-bossuet.fr/,48.938016,2.87061,7728401,"48.938016, 2.87061",2003-02-01
Île-de-France,Seine-et-Marne,Meaux,M1171,musée de la Grande Guerre du pays de Meaux,,Rue Lazare Ponticelli,"Rue Lazare Ponticelli, 77100",77100,www.museedelagrandeguerre.eu/,48.955281,2.901461,7728402,"48.955281, 2.901461",2007-03-26
Île-de-France,Seine-et-Marne,Moret-sur-Loing,M0380,musée municipal de Moret-sur-Loing,,place de Samois,"place de Samois, 77250",77250,,48.373638,2.815046,7731601,"48.373638, 2.815046",2003-02-01
Île-de-France,Seine-et-Marne,Nemours,M0382,musée départemental de Préhistoire d'Île-de-France,,48 avenue Etienne Dailly,"48 avenue Etienne Dailly, 77140",77140,www.musee-prehistoire-idf.fr/fr,48.260312,2.714321,7733301,"48.260312, 2.714321",2003-02-01
Île-de-France,Val d'Oise,Argenteuil,M0432,musée d'Argenteuil,,12-14 Boulevard Léon Feix,"12-14 Boulevard Léon Feix, 95100",95100,,48.946909,2.249331,9501801,"48.946909, 2.249331",2003-02-01
Île-de-France,Val d'Oise,Guiry-en-Vexin,M0434,musée archéologique départemental du Val-d'Oise,,4 place du Château,"4 place du Château, 95450",95450,www.valdoise.fr/608-le-musee-archeologique-departemental-du-val-d-oise.htm,49.108589,1.849395,9529501,"49.108589, 1.849395",2003-02-01
Île-de-France,Val d'Oise,L'Isle-Adam,M0435,musée d'art et d'histoire Louis-Senlecq,,31 Grande rue,"31 Grande rue, 95290",95290,ville-isle-adam.fr/musee,49.112285,2.21638,9531301,"49.112285, 2.21638",2003-02-01
Île-de-France,Val d'Oise,Montmorency,M0437,musée Jean-Jacques-Rousseau,,5 rue Jean-Jacques Rousseau,"5 rue Jean-Jacques Rousseau, 95160",95160,museejjrousseau.montmorency.fr/fr,48.986892,2.320916,9542801,"48.986892, 2.320916",2003-02-01
Île-de-France,Val d'Oise,Pontoise,M0438,musée Tavet-Delacour,,4 rue Lemercier,"4 rue Lemercier, 95300",95300,www.ville-pontoise.fr/equipement/musee-tavet-delacour#overlay-context=search/node/tavet,49.050929,2.099776,9550001,"49.050929, 2.099776",2003-02-01
Île-de-France,Val-de-Marne,Villiers-sur-Marne,M0430,musée Émile Jean,,31 rue Louis-Lenoir,"31 rue Louis-Lenoir, 94350",94350,www.villiers94.fr/culture-et-sports/patrimoine/musee-emile-jean/,48.826701,2.543144,9407901,"48.826701, 2.543144",2003-02-01
Île-de-France,Yvelines,Montfort-l'Amaury,M0392,Le Belvédère,,5 rue Maurice-Ravel,"5 rue Maurice-Ravel, 78490",78490,www.montfortlamaury.fr/culture-tourisme/sites-et-monuments/la-maison-musee-de-maurice-ravel/,48.776137,1.805464,7842001,"48.776137, 1.805464",2003-02-01
Île-de-France,Yvelines,Saint-Germain-en-Laye,M0397,musée municipal de Saint-Germain-en-Laye,,38 rue au Pain,"38 rue au Pain, 78000",78000,www.saintgermainenlaye.fr/736/musee-municipal.htm?L=ppapagepapage=,48.794403,2.127681,7855102,"48.794403, 2.127681",2003-02-01
Île-de-France,Yvelines,Versailles,M5077,château de Versailles,,place Armes,"place Armes, 78000",78000,www.chateauversailles.fr/,48.804537,2.134053,7864602,"48.804537, 2.134053",2002-01-06
